[
    { "id_restaurants":1, 
    "name":"Restaurant Zed", 
    "address":"Carrer de Valencia, 409, 08013 Barcelona", 
    "lat":41.4012, 
    "lng":2.1746, 
    "kind_food":"mediterraneo"},
 
    {"id_restaurants":2, 
     "name":"Bicos Restaurante", 
     "address":"Avenida Diagonal, 299, 08013 Barcelona", 
     "lat":41.4001, 
     "lng":2.17493, 
     "kind_food":"latinoamericano"},
 
    {"id_restaurants":3, 
    "name":"Via Napoli Pizzeria", 
    "address":"Carrer de Napols 254, 08025 Barcelona", 
    "lat":41.402, 
    "lng":2.17089, 
    "kind_food":"mediterraneo"},
 
    {"id_restaurants":4, 
    "name":"Galu Restaurante Italiano", 
    "address":"Carrer de Rossello, 323, 08037 Barcelona", 
    "lat":41.3996, "lng":2.16581, 
    "kind_food":"mediterraneo"},
 
    {"id_restaurants":5, 
    "name":"Fukuoka Sushi and Grill", 
    "address":"Carrer de Siracusa, 53, 08012 Barcelona", 
    "lat":41.4022, 
    "lng":2.1614, 
    "kind_food":"asiatico"},
 
    {"id_restaurants":6, 
    "name":"Bodega Atl\u00e1ntida",
    "address":"Passeig de Sant Joan, 201, 08037 Barcelona", 
    "lat":41.4039, "lng":2.16299, 
    "kind_food":"latinoamericano"},
 
    {"id_restaurants":7, 
    "name":"Manairo",
    "address":"Carrer de la diputacio, 416, 08013 Barcelona", 
    "lat":41.39957, 
    "lng":2.17946, 
    "kind_food":"asiatico"},
 
    {"id_restaurants":8, 
    "name":"Yesterday", 
    "address":"Carrer de Neptu, 22, 08006 Barcelona", 
    "lat":41.3985, 
    "lng":2.15425, 
    "kind_food":"asiatico"},
 
    {"id_restaurants":9, 
    "name":"Restaurant Hofmann", 
    "address":"Carrer de Balmes, 200, 08006 Barcelona", 
    "lat":41.3971, 
    "lng":2.15295, 
    "kind_food":"mediterraneo"},
 
    {"id_restaurants":10, 
    "name":"Speakeasy", 
    "address":"Carrer d Aribau, 162, 08036 Barcelona", 
    "lat":41.3927, 
    "lng":2.15378, 
    "kind_food":"mediterraneo"}
]